{
  "31.7492,117.2509": {
    "name": "公司",
    "lat": 31.7492,
    "lon": 117.2509,
    "count": 5746,
    "last_used": "2026-07-02 04:52"
  },
  "31.7458,117.2274": {
    "name": "Anhui",
    "lat": 31.745825,
    "lon": 117.227425,
    "count": 10,
    "last_used": "2026-07-02 14:24"
  },
  "31.7546,117.3027": {
    "name": "安徽省合肥市包河区滨湖会展中心(地铁站)",
    "lat": 31.754639,
    "lon": 117.302666,
    "count": 3,
    "last_used": "2026-07-02 15:44"
  },
  "31.7100,117.2800": {
    "name": "未知地点(坐标31.71,117.28)",
    "lat": 31.71,
    "lon": 117.28,
    "count": 1,
    "last_used": "2026-07-01 06:27"
  },
  "31.8418,117.2961": {
    "name": "安徽省合肥市包河区合肥工业大学",
    "lat": 31.841767,
    "lon": 117.296145,
    "count": 1,
    "last_used": "2026-07-01 06:28"
  },
  "31.8650,117.3010": {
    "name": "逍遥津公园",
    "lat": 31.865,
    "lon": 117.301,
    "count": 1,
    "last_used": "2026-07-02 14:42"
  }
}